City_ID,City,Lat,Lng,Max Temp,Humidity,Cloudiness,Wind Speed,Country,Date
0,uncia,-18.467,-66.5685,33.599999999999994,31,35,2.96,BO,1667850832
1,rikitea,-23.1203,-134.9692,42.650000000000006,92,100,10.9,PF,1667850833
2,kavieng,-2.5744,150.7967,47.53999999999999,77,84,2.85,PG,1667850833
3,inongo,-1.95,18.2667,42.41999999999999,91,58,1.36,CD,1667850833
4,cabo san lucas,22.8909,-109.9124,49.22999999999999,62,5,4.46,MX,1667850834
5,atuona,-9.8,-139.0333,44.890000000000015,70,73,6.26,PF,1667850834
6,punta arenas,-53.15,-70.9167,38.059999999999974,45,75,8.23,CL,1667850835
7,portland,45.5234,-122.6762,26.32000000000002,91,100,4.02,US,1667850677
8,yashkul,46.1711,45.3435,22.789999999999992,72,79,4.5,RU,1667850835
9,srednekolymsk,67.45,153.6833,-8.939999999999998,100,92,0.11,RU,1667850835
10,tasiilaq,65.6145,-37.6368,19.799999999999983,90,100,4.41,GL,1667850836
11,los llanos de aridane,28.6585,-17.9182,39.859999999999985,78,20,2.68,ES,1667850836
12,port alfred,-33.5906,26.891,37.32000000000002,92,100,0.89,ZA,1667850837
13,christchurch,-43.5333,172.6333,35.51000000000002,81,100,1.54,NZ,1667850736
14,mataura,-46.1927,168.8643,31.349999999999994,90,100,0.65,NZ,1667850837
15,jamestown,42.097,-79.2353,32.809999999999974,33,0,8.75,US,1667850837
16,geraldton,-28.7667,114.6,36.22999999999999,88,75,2.57,AU,1667850838
17,iqaluit,63.7506,-68.5145,12.849999999999994,67,75,7.2,CA,1667850838
18,ilhabela,-23.7781,-45.3581,38.52000000000001,88,100,1.54,BR,1667850838
19,ilulissat,69.2167,-51.1,-0.6400000000000148,88,15,2.91,GL,1667850839
20,bluff,-46.6,168.3333,31.99999999999997,84,81,3.05,NZ,1667850839
21,ujhartyan,47.2198,19.3864,27.710000000000008,86,8,2.4,HU,1667850840
22,tolaga bay,-38.3667,178.3,35.08000000000001,65,98,2.35,NZ,1667850840
23,mount isa,-20.7333,139.5,39.869999999999976,68,0,0.0,AU,1667850840
24,puerto ayora,-0.7393,-90.3518,42.97999999999999,81,75,3.58,EC,1667850841
25,ushuaia,-54.8,-68.3,35.809999999999974,48,75,6.69,AR,1667850841
26,hasaki,35.7333,140.8333,31.789999999999992,89,63,1.91,JP,1667850841
27,bathsheba,13.2167,-59.5167,50.34,70,40,7.72,BB,1667850842
28,namibe,-15.1961,12.1522,40.619999999999976,78,5,5.91,AO,1667850842
29,hof,50.3167,11.9167,29.950000000000017,88,20,4.12,DE,1667850843
30,pangnirtung,66.1451,-65.7125,9.999999999999972,44,20,2.57,CA,1667850843
31,mahebourg,-20.4081,57.7,43.47,83,20,3.6,MU,1667850681
32,yellowknife,62.456,-114.3525,5.309999999999974,85,100,2.57,CA,1667850567
33,nova olimpia,-14.7972,-57.2881,56.96000000000001,14,0,0.89,BR,1667850844
34,butaritari,3.0707,172.7902,46.599999999999994,76,17,3.21,KI,1667850844
35,waipawa,-41.4122,175.5153,33.41,68,6,0.18,NZ,1667850845
36,vao,-22.6667,167.4833,43.66999999999999,84,83,8.05,NC,1667850845
37,castro,-24.7911,-50.0119,38.849999999999994,49,18,1.68,BR,1667850846
38,leningradskiy,69.3833,178.4167,8.590000000000003,87,100,1.07,RU,1667850846
39,beira,-19.8436,34.8389,45.78999999999999,81,0,4.82,MZ,1667850847
40,sand,50.0,10.6,31.039999999999992,92,93,2.17,DE,1667850847
41,qaanaaq,77.484,-69.3632,1.6599999999999966,95,100,4.42,GL,1667850848
42,bengkulu,-3.8004,102.2655,43.22999999999999,93,100,1.64,ID,1667850848
43,longyearbyen,78.2186,15.6401,15.909999999999997,80,75,1.03,SJ,1667850848
44,nikolskoye,59.7035,30.7861,25.51000000000002,87,100,4.32,RU,1667850849
45,busselton,-33.65,115.3333,31.640000000000015,91,8,4.44,AU,1667850849
46,nanortalik,60.1432,-45.2371,17.49999999999997,89,100,0.23,GL,1667850849
47,strezhevoy,60.7333,77.5889,15.210000000000008,93,100,2.82,RU,1667850850
48,faya,18.3851,42.4509,37.059999999999974,82,20,1.05,SA,1667850850
49,albany,42.6001,-73.9662,39.12999999999997,32,0,0.89,US,1667850851
50,windhoek,-22.5594,17.0832,38.390000000000015,34,0,2.06,NA,1667850659
51,ponta do sol,32.6667,-17.1,41.66999999999999,90,95,1.29,PT,1667850851
52,quarai,-30.3875,-56.4514,44.87999999999997,33,0,7.48,BR,1667850851
53,rocha,-34.4833,-54.3333,39.03,63,0,5.55,UY,1667850785
54,college,64.8569,-147.8028,12.669999999999987,70,0,0.0,US,1667850852
55,abnub,27.2696,31.1511,41.20000000000002,34,99,4.05,EG,1667850852
56,hobart,-42.8794,147.3294,32.91999999999999,89,0,3.6,AU,1667850605
57,dikson,73.5069,80.5464,4.869999999999976,93,100,5.34,RU,1667850853
58,bethel,41.3712,-73.414,43.46000000000001,38,5,2.68,US,1667850854
59,tibana,46.9833,27.3333,27.039999999999992,74,60,3.02,RO,1667850854
60,altus,34.6381,-99.334,39.72999999999999,68,75,3.6,US,1667850854
61,arraial do cabo,-22.9661,-42.0278,42.97999999999999,64,75,4.12,BR,1667850855
62,norsup,-16.0667,167.3833,47.349999999999994,79,7,4.75,VU,1667850855
63,necochea,-38.5473,-58.7368,46.20000000000002,30,2,7.0,AR,1667850856
64,hecun,36.5333,114.1111,28.99999999999997,52,3,1.21,CN,1667850856
65,havoysund,70.9963,24.6622,24.129999999999967,75,73,6.8,NO,1667850857
66,porto novo,6.4965,2.6036,48.900000000000006,82,94,2.94,BJ,1667850857
67,wewak,-3.5534,143.6268,45.599999999999994,87,99,2.19,PG,1667850857
68,luderitz,-26.6481,15.1594,37.16999999999999,85,1,3.27,NA,1667850858
69,killybegs,54.6333,-8.45,32.84,91,100,10.89,IE,1667850858
70,port blair,11.6667,92.75,46.16,82,100,4.0,IN,1667850859
71,carnarvon,-24.8667,113.6333,38.57000000000002,66,24,6.05,AU,1667850859
72,parnamirim,-5.9156,-35.2628,49.18999999999997,65,40,5.66,BR,1667850859
73,saskylakh,71.9167,114.0833,-11.039999999999992,99,24,2.22,RU,1667850860
74,clyde river,70.4692,-68.5914,7.129999999999967,72,75,2.57,CA,1667850860
75,olafsvik,64.8945,-23.7142,26.22999999999999,71,100,5.28,IS,1667850860
76,san quintin,30.4833,-115.95,40.04999999999998,67,86,6.31,MX,1667850861
77,mar del plata,-38.0023,-57.5575,45.46000000000001,77,0,10.29,AR,1667850596
78,lalin,42.7167,-8.1167,34.04999999999998,89,94,5.48,ES,1667850862
79,new norfolk,-42.7826,147.0587,32.72,89,93,1.26,AU,1667850862
80,launceston,-41.45,147.1667,31.200000000000017,88,31,3.09,AU,1667850863
81,hermanus,-34.4187,19.2345,35.99999999999997,85,59,5.23,ZA,1667850863
82,atar,20.5169,-13.0499,48.33000000000001,14,0,1.03,MR,1667850864
83,henties bay,-22.116,14.2845,37.359999999999985,86,3,1.28,NA,1667850864
84,huilong,31.8111,121.655,34.400000000000006,79,0,1.76,CN,1667850865
85,sao filipe,14.8961,-24.4956,46.04999999999998,68,32,2.22,CV,1667850865
86,am timan,11.0297,20.2827,47.58000000000001,27,30,1.47,TD,1667850866
87,avarua,-21.2078,-159.775,44.03,73,20,3.09,CK,1667850866
88,coquimbo,-29.9533,-71.3436,35.849999999999994,77,100,5.14,CL,1667850866
89,chute-aux-outardes,49.1168,-68.399,26.98999999999998,87,100,8.23,CA,1667850867
90,fukue,32.6881,128.8419,37.57000000000002,53,0,5.88,JP,1667850867
91,upata,8.0086,-62.3989,46.22,85,49,1.17,VE,1667850868
92,nouadhibou,20.931,-17.0347,41.98999999999998,73,0,6.17,MR,1667850868
93,bambous virieux,-20.3428,57.7575,43.45000000000002,83,20,3.6,MU,1667850869
94,tautira,-17.7333,-149.15,44.52000000000001,88,2,5.73,PF,1667850869
95,mezhdurechensk,53.6942,88.0603,16.789999999999992,97,99,0.31,RU,1667850869
96,ostrovnoy,68.0531,39.5131,18.700000000000017,94,95,2.14,RU,1667850870
97,kapaa,22.0752,-159.319,47.98999999999998,75,40,6.17,US,1667850870
98,beringovskiy,63.05,179.3167,18.49999999999997,96,100,8.09,RU,1667850870
99,grand gaube,-20.0064,57.6608,43.53999999999999,69,0,1.34,MU,1667850871
100,guerrero negro,27.9769,-114.0611,40.900000000000006,64,98,5.92,MX,1667850871
101,vangaindrano,-23.35,47.6,42.46000000000001,90,92,3.18,MG,1667850871
102,kizukuri,40.8061,140.3861,28.07000000000002,88,81,1.72,JP,1667850872
103,port hedland,-20.3167,118.5667,42.03,73,5,5.14,AU,1667850872
104,tuktoyaktuk,69.4541,-133.0374,2.9999999999999716,78,40,3.6,CA,1667850872
105,port elizabeth,-33.918,25.5701,38.51000000000002,90,0,6.17,ZA,1667850679
106,bredasdorp,-34.5322,20.0403,36.17999999999998,83,44,3.28,ZA,1667850873
107,saldanha,-33.0117,17.9442,36.24999999999997,89,4,4.09,ZA,1667850873
108,goundam,16.4145,-3.6708,48.24999999999997,13,98,3.86,ML,1667850874
109,vaini,-21.2,-175.2,45.09,73,20,3.09,TO,1667850874
110,finschhafen,-6.6024,147.8681,45.91,78,100,2.18,PG,1667850875
111,torbay,47.6666,-52.7314,35.41999999999999,97,100,9.77,CA,1667850875
112,cape town,-33.9258,18.4232,37.369999999999976,78,0,2.06,ZA,1667850791
113,anadyr,64.75,177.4833,19.28,100,40,6.0,RU,1667850875
114,williams lake,52.1415,-122.1445,8.919999999999987,77,100,4.63,CA,1667850876
115,sao felix do xingu,-6.6447,-51.995,48.18999999999997,71,100,1.27,BR,1667850876
116,mahon,39.8885,4.2658,38.309999999999974,77,20,3.09,ES,1667850876
117,fortuna,40.5982,-124.1573,31.159999999999997,89,75,4.63,US,1667850877
118,savannah bight,16.45,-85.85,47.70000000000002,69,14,5.21,HN,1667850877
119,svetlogorsk,52.6333,29.7333,27.289999999999992,81,98,4.89,BY,1667850878
120,nome,64.5011,-165.4064,18.039999999999992,93,100,13.38,US,1667850878
121,mugur-aksy,50.35,90.5,13.530000000000001,84,70,2.64,RU,1667850878
122,alofi,-19.0595,-169.9187,44.93999999999997,73,34,4.12,NU,1667850721
123,wooster,40.8051,-81.9351,36.51000000000002,25,0,3.6,US,1667850879
124,lompoc,34.6391,-120.4579,35.42999999999998,97,100,4.63,US,1667850879
125,ambanja,-13.6833,48.45,43.87999999999997,85,91,0.43,MG,1667850880
126,sitka,57.0531,-135.33,18.460000000000008,39,0,3.69,US,1667850880
127,alexandria,31.2156,29.9553,41.28999999999999,70,1,7.7,EG,1667850591
128,saint george,37.1041,-113.5841,41.91,28,0,11.83,US,1667850662
129,cabedelo,-6.9811,-34.8339,49.369999999999976,69,58,4.61,BR,1667850881
130,lorengau,-2.0226,147.2712,47.70000000000002,76,92,2.64,PG,1667850881
131,den helder,52.9599,4.7593,34.42999999999998,89,100,13.86,NL,1667850684
132,hilo,19.7297,-155.09,47.359999999999985,87,100,0.89,US,1667850881
133,mayo,38.8876,-76.5119,46.73999999999998,36,0,3.09,US,1667850882
134,markapur,15.7333,79.2833,41.27000000000001,84,4,0.29,IN,1667850882
135,karlshamn,56.1706,14.8619,31.27000000000001,79,98,5.87,SE,1667850883
136,locri,38.2414,16.2623,36.51000000000002,73,12,3.12,IT,1667850883
137,fomboni,-12.28,43.7425,45.82000000000002,82,0,5.75,KM,1667850884
138,cherskiy,68.75,161.3,-0.8400000000000034,98,23,1.88,RU,1667850884
139,maceio,-9.6658,-35.7353,46.68999999999997,83,75,4.12,BR,1667850625
140,barrow,71.2906,-156.7887,15.039999999999992,89,100,4.45,US,1667850884
141,luena,-11.7833,19.9167,37.43999999999997,97,100,1.63,AO,1667850885
142,balakhninskiy,58.0106,114.2769,15.039999999999992,97,100,1.44,RU,1667850885
143,bend,44.0582,-121.3153,25.47999999999999,73,68,4.47,US,1667850886
144,kawalu,-7.3817,108.2082,41.59,98,100,0.74,ID,1667850886
145,east london,-33.0153,27.9116,42.04999999999998,79,100,2.69,ZA,1667850886
146,mandalgovi,45.7625,106.2708,19.99999999999997,36,19,4.15,MN,1667850626
147,pahrump,36.2083,-115.9839,38.619999999999976,43,97,4.92,US,1667850887
148,deputatskiy,69.3,139.9,-0.4399999999999977,93,100,2.73,RU,1667850887
149,airai,-8.9266,125.4092,36.53,86,100,0.49,TL,1667850888
150,klaksvik,62.2266,-6.589,29.51000000000002,91,96,14.37,FO,1667850888
151,pravdinsk,54.4429,21.0179,28.02000000000001,81,100,4.92,RU,1667850888
152,varhaug,58.6147,5.6457,30.49999999999997,90,100,4.63,NO,1667850889
153,saint-philippe,-21.3585,55.7679,41.77000000000001,82,62,4.69,RE,1667850889
154,sorong,-0.8833,131.25,46.119999999999976,84,100,2.22,ID,1667850889
155,keningau,5.3378,116.1602,41.76000000000002,99,100,0.33,MY,1667850890
156,daru,-9.0763,143.2092,45.99999999999997,87,100,3.33,PG,1667850890
157,lavrentiya,65.5833,-171.0,17.97,96,100,7.22,RU,1667850891
158,vanavara,60.34,102.2797,13.379999999999967,91,100,4.42,RU,1667850891
159,ancud,-41.8697,-73.8203,34.28999999999999,75,56,3.58,CL,1667850792
160,cayenne,4.9333,-52.3333,47.02000000000001,78,100,1.03,GF,1667850808
161,saint-joseph,-21.3667,55.6167,41.21000000000001,80,60,3.95,RE,1667850892
162,novobirilyussy,56.9514,90.6661,15.580000000000013,97,97,1.61,RU,1667850892
163,kodiak,57.79,-152.4072,23.72999999999999,81,100,9.77,US,1667850893
164,bandarbeyla,9.4942,50.8122,45.91,72,0,2.55,SO,1667850893
165,ribeira grande,38.5167,-28.7,37.22,67,40,4.63,PT,1667850893
166,ust-ordynskiy,52.805,104.7508,19.650000000000006,72,100,5.0,RU,1667850894
167,balkanabat,39.5108,54.3671,27.32000000000002,51,0,1.15,TM,1667850894
168,troy,42.6056,-83.1499,34.72999999999999,40,1,1.34,US,1667850834
169,nizwa,22.9333,57.5333,45.41,41,69,1.05,OM,1667850895
170,isangel,-19.55,169.2667,45.93999999999997,80,81,3.77,VU,1667850895
171,canoinhas,-26.1772,-50.39,38.27000000000001,57,39,2.33,BR,1667850895
172,dubti,11.7361,41.0853,48.72999999999999,51,14,6.31,ET,1667850896
173,dingle,10.9995,122.6711,44.33000000000001,92,55,2.5,PH,1667850896
174,baryshivka,50.361,31.3217,24.73999999999998,72,13,3.65,UA,1667850896
175,upernavik,72.7868,-56.1549,8.080000000000013,86,100,2.36,GL,1667850897
176,salalah,17.0151,54.0924,44.900000000000006,67,0,0.93,OM,1667850897
177,at-bashi,41.1702,75.8106,21.309999999999974,67,100,0.57,KG,1667850898
178,mehamn,71.0357,27.8492,21.97,93,75,1.54,NO,1667850898
179,hithadhoo,-0.6,73.0833,47.53,78,90,7.69,MV,1667850898
180,loreto,22.2667,-101.9667,44.82000000000002,16,0,4.02,MX,1667850737
181,havre-saint-pierre,50.2334,-63.5986,29.200000000000017,100,100,6.17,CA,1667850899
182,garoua boulai,5.8833,14.55,39.640000000000015,78,90,1.82,CM,1667850899
183,general teran,25.2667,-99.6833,50.619999999999976,49,50,4.08,MX,1667850899
184,olinda,-8.0089,-34.8553,47.849999999999994,69,40,3.09,BR,1667850628
185,westport,41.1415,-73.3579,45.16,26,2,5.56,US,1667850900
186,aksarka,66.5606,67.7975,13.099999999999994,95,100,3.52,RU,1667850900
187,bubaque,11.2833,-15.8333,48.72999999999999,66,84,4.75,GW,1667850901
188,chokurdakh,70.6333,147.9167,-4.360000000000014,93,73,5.47,RU,1667850901
189,lysyanka,49.2523,30.8295,24.629999999999967,67,42,3.32,UA,1667850901
190,yenagoa,4.9247,6.2642,46.72999999999999,79,100,1.96,NG,1667850902
191,the valley,18.217,-63.0578,47.91999999999999,83,20,3.6,AI,1667850902
192,isla mujeres,21.2311,-86.731,50.09,68,3,4.9,MX,1667850903
193,port lincoln,-34.7333,135.8667,39.66999999999999,57,100,6.04,AU,1667850903
194,quang ngai,15.1167,108.8,41.46000000000001,92,78,3.03,VN,1667850776
195,caracoli,6.4119,-74.7606,46.26000000000002,80,98,1.58,CO,1667850904
196,isiolo,0.3546,37.5822,41.140000000000015,73,99,2.59,KE,1667850904
197,labuhan,-6.8844,112.2051,45.599999999999994,85,100,2.88,ID,1667850905
198,tabuk,17.4189,121.4443,42.369999999999976,96,43,0.96,PH,1667850905
199,oro valley,32.3909,-110.9665,47.62999999999997,18,66,2.68,US,1667850905
200,aquiraz,-3.9014,-38.3911,48.04999999999998,69,84,5.05,BR,1667850906
201,kattivakkam,13.2167,80.3167,46.04999999999998,82,59,4.52,IN,1667850906
202,payo,-3.7508,103.6372,42.78,99,100,0.93,ID,1667850906
203,wangkui,46.8333,126.5,17.659999999999997,62,16,3.02,CN,1667850907
204,lebu,-37.6167,-73.65,34.77000000000001,68,1,5.16,CL,1667850907
205,flinders,-34.5833,150.8552,36.32000000000002,83,24,3.13,AU,1667850908
206,maningrida,-12.0667,134.2667,47.49999999999997,74,71,1.78,AU,1667850908
207,tiksi,71.6872,128.8694,2.8499999999999943,91,100,8.74,RU,1667850908
208,vardo,70.3705,31.1107,21.98999999999998,87,75,2.57,NO,1667850909
209,creazzo,45.532,11.4785,31.919999999999987,74,5,0.89,IT,1667850909
210,tucuma,-0.1833,-50.05,45.28999999999999,88,100,1.31,BR,1667850910
211,troyes,48.3333,4.0833,32.42999999999998,93,0,2.06,FR,1667850910
212,yulara,-25.2406,130.9889,43.349999999999994,47,80,2.03,AU,1667850911
213,kirakira,-10.4544,161.9205,47.119999999999976,82,65,3.09,SB,1667850911
214,san patricio,28.017,-97.5169,50.91999999999999,56,0,5.87,US,1667850911
215,sechura,-5.5569,-80.8222,44.119999999999976,60,27,6.19,PE,1667850912
216,esslingen,48.7396,9.3047,31.900000000000006,87,0,1.03,DE,1667850912
217,staryy nadym,65.6118,72.6842,13.27000000000001,91,100,3.93,RU,1667850913
218,khatanga,71.9667,102.5,5.02000000000001,96,100,2.64,RU,1667850913
219,rancho palos verdes,33.7445,-118.387,39.02000000000001,88,100,3.13,US,1667850668
220,shimoda,34.6667,138.95,32.28,68,0,5.25,JP,1667850913
221,bela vista de goias,-16.9728,-48.9533,50.640000000000015,26,71,0.23,BR,1667850914
222,mariestad,58.7097,13.8237,30.26000000000002,93,80,6.95,SE,1667850914
223,kruisfontein,-34.0033,24.7314,35.78999999999999,78,100,2.81,ZA,1667850915
224,langxiang,46.95,128.8833,16.629999999999967,82,70,1.64,CN,1667850915
225,severo-kurilsk,50.6789,156.125,22.140000000000015,75,89,5.79,RU,1667850916
226,te anau,-45.4167,167.7167,31.369999999999976,83,47,0.5,NZ,1667850916
227,thompson,55.7435,-97.8558,6.090000000000003,66,20,3.09,CA,1667850916
228,parati,-23.2178,-44.7131,38.21000000000001,97,100,1.46,BR,1667850917
229,karratha,-20.7377,116.8463,39.41,63,0,7.21,AU,1667850917
230,nizhniy tsasuchey,50.5167,115.1333,17.049999999999983,66,17,1.73,RU,1667850918
231,san andres,12.5847,-81.7006,48.109999999999985,68,100,4.56,CO,1667850918
232,utena,55.5,25.6,27.340000000000003,90,91,4.97,LT,1667850919
233,miandoab,36.9694,46.1027,29.340000000000003,56,100,3.39,IR,1667850919
234,dormidontovka,47.7702,134.9076,16.24999999999997,85,6,2.41,RU,1667850919
235,norman wells,65.282,-126.8329,3.0200000000000102,85,20,2.57,CA,1667850920
236,vanimo,-2.6741,141.3028,45.43999999999997,88,100,1.22,PG,1667850920
237,svetlyy,54.675,20.1347,29.03,81,100,7.4,RU,1667850920
238,ixtapa,20.7,-105.2,48.46000000000001,66,1,2.24,MX,1667850921
239,kargasok,59.0556,80.8572,16.150000000000006,96,100,1.66,RU,1667850921
240,asau,46.4333,26.4,25.710000000000008,79,84,1.3,RO,1667850922
241,bardiyah,31.7561,25.0865,39.869999999999976,67,37,6.69,LY,1667850922
242,half moon bay,37.4636,-122.4286,36.98999999999998,58,0,5.14,US,1667850923
243,excelsior springs,39.3392,-94.2261,35.41,18,0,4.12,US,1667850923
244,tuatapere,-46.1333,167.6833,33.18999999999997,71,100,1.59,NZ,1667850924
245,cabinda,-5.55,12.2,47.08000000000001,83,40,3.09,AO,1667850924
246,poum,-20.2333,164.0167,45.28,82,100,4.88,NC,1667850925
247,georgetown,5.4112,100.3354,46.96000000000001,83,20,2.24,MY,1667850925
248,kokoda,-8.8785,147.7407,42.58000000000001,90,100,1.0,PG,1667850926
249,faanui,-16.4833,-151.75,45.92999999999998,75,19,3.24,PF,1667850926
250,luoyang,34.6836,112.4536,32.47999999999999,57,100,3.26,CN,1667850926
251,tromso,69.6496,18.957,23.01000000000002,87,75,6.17,NO,1667850769
252,la dorada,5.4478,-74.6631,51.559999999999974,60,32,0.4,CO,1667850927
253,sambava,-14.2667,50.1667,42.95000000000002,81,61,3.45,MG,1667850927
254,pontianak,-0.0333,109.3333,43.98999999999998,100,40,0.0,ID,1667850927
255,amambai,-23.1042,-55.2258,44.97999999999999,46,50,2.15,BR,1667850928
256,yelizovo,53.1873,158.3805,15.080000000000013,73,75,2.0,RU,1667850928
257,panjakent,39.4952,67.6093,24.879999999999967,99,100,2.43,TJ,1667850929
258,samarai,-10.6167,150.6667,46.99999999999997,79,11,2.15,PG,1667850929
259,hofn,64.2539,-15.2082,26.01000000000002,81,75,9.26,IS,1667850929
260,tazovskiy,67.4667,78.7,10.539999999999992,97,100,0.87,RU,1667850930
261,anqing,30.5092,117.0506,35.41,49,0,2.19,CN,1667850930
262,pevek,69.7008,170.3133,3.8200000000000216,95,6,1.72,RU,1667850931
263,axim,4.8699,-2.2405,45.97999999999999,85,100,3.1,GH,1667850931
264,puerto rondon,6.2805,-71.1,49.17999999999998,67,100,1.82,CO,1667850931
265,novopokrovka,49.8425,36.5477,21.22,82,37,2.31,UA,1667850932
266,hualmay,-11.0964,-77.6139,40.359999999999985,70,10,4.3,PE,1667850932
267,abashiri,44.0213,144.2697,21.640000000000015,74,100,3.27,JP,1667850932
268,bay city,43.5945,-83.8889,31.17999999999998,45,0,4.63,US,1667850872
269,dongsheng,39.8161,109.9776,21.869999999999976,43,12,3.05,CN,1667850933
270,provideniya,64.3833,-173.3,18.599999999999994,95,100,9.46,RU,1667850933
271,ahipara,-35.1667,173.1667,35.03,90,100,6.97,NZ,1667850934
272,buraydah,26.326,43.975,43.24999999999997,62,0,4.64,SA,1667850649
273,akyab,20.15,92.9,43.58000000000001,88,7,3.87,MM,1667850934
274,fairbanks,64.8378,-147.7164,12.679999999999978,73,100,1.61,US,1667850935
275,zhigansk,66.7697,123.3711,-4.010000000000019,95,100,2.13,RU,1667850935
276,praya,14.9215,-23.5087,47.29999999999998,61,0,5.14,CV,1667850935
277,kieta,-6.2167,155.6333,46.01000000000002,81,27,1.43,PG,1667850936
278,nuevo progreso,23.1667,-97.95,49.73999999999998,68,51,2.24,MX,1667850936
279,yaan,7.3833,8.5667,46.28,39,85,0.31,NG,1667850937
280,manokwari,-0.8667,134.0833,45.71000000000001,79,80,2.26,ID,1667850937
281,sokoto,13.0609,5.239,46.28,18,18,4.27,NG,1667850937
282,adolfo lopez mateos,28.4667,-107.3,43.849999999999994,11,98,3.47,MX,1667850938
283,kuopio,62.8924,27.677,25.97,93,100,1.54,FI,1667850938
284,ayorou,14.7308,0.9174,48.22,11,90,4.02,NE,1667850939
285,soe,-9.8607,124.284,39.97,90,100,0.98,ID,1667850939
286,qasigiannguit,68.8193,-51.1922,0.01999999999998181,91,14,2.49,GL,1667850940
287,eureka,40.8021,-124.1637,31.309999999999974,82,100,2.68,US,1667850759
288,tual,-5.6667,132.75,48.559999999999974,73,100,2.05,ID,1667850940
289,nara,34.6851,135.8049,32.04999999999998,71,35,0.17,JP,1667850803
290,vitoria da conquista,-14.8661,-40.8394,41.97,62,78,3.49,BR,1667850941
291,gravdal,68.1214,13.5031,23.93999999999997,87,40,8.23,NO,1667850941
292,obera,-27.4871,-55.1199,45.62999999999997,29,2,2.68,AR,1667850687
293,vestmannaeyjar,63.4427,-20.2734,26.52000000000001,82,100,6.4,IS,1667850941
294,sungaipenuh,-2.0833,101.3833,38.140000000000015,97,100,0.24,ID,1667850942
295,cockburn town,21.4612,-71.1419,45.97999999999999,78,75,4.12,TC,1667850780
296,esperance,-33.8667,121.9,34.91,84,99,6.85,AU,1667850942
297,siderno,38.2779,16.302,36.72,73,14,2.71,IT,1667850943
298,piracuruca,-3.9281,-41.7092,48.119999999999976,68,100,0.85,BR,1667850943
299,kohat,33.582,71.4493,36.03999999999999,61,6,1.78,PK,1667850944
300,tamiahua,21.2667,-97.45,48.150000000000006,68,48,3.64,MX,1667850944
301,vicksburg,32.3526,-90.8779,50.82000000000002,56,75,3.09,US,1667850696
302,biak,-0.9131,122.8766,44.51000000000002,86,100,1.38,ID,1667850944
303,palmer,42.1584,-72.3287,43.369999999999976,21,1,0.89,US,1667850945
304,taki,22.5861,88.9214,44.97,72,54,1.09,IN,1667850945
305,independence,39.0911,-94.4155,34.77000000000001,31,100,3.13,US,1667850945
306,la reforma,25.0833,-108.05,47.33000000000001,45,25,3.35,MX,1667850946
307,mae sot,16.7167,98.5667,40.22999999999999,87,0,0.89,TH,1667850946
308,chuy,-33.6971,-53.4616,38.49999999999997,61,3,5.47,UY,1667850947
309,cervignano del friuli,45.8211,13.3381,32.32000000000002,86,16,1.03,IT,1667850947
310,rathenow,52.6066,12.337,32.28,76,100,4.63,DE,1667850947
311,hay river,60.8156,-115.7999,3.9899999999999807,72,40,4.12,CA,1667850948
312,cidreira,-30.1811,-50.2056,37.87999999999997,78,15,5.82,BR,1667850948
313,san luis obispo,35.3666,-120.5343,33.03999999999999,94,100,0.0,US,1667850948
314,hambantota,6.1241,81.1185,45.359999999999985,82,98,1.04,LK,1667850949
315,namatanai,-3.6667,152.4333,46.26000000000002,82,89,1.69,PG,1667850949
316,gustrow,53.7972,12.1734,34.47,76,75,4.63,DE,1667850883
317,aksu,41.1231,80.2644,27.159999999999997,40,7,0.98,CN,1667850949
318,luanda,-8.8368,13.2343,46.99999999999997,78,20,4.63,AO,1667850950
319,jvari,42.7169,42.052,29.24999999999997,36,87,4.44,GE,1667850950
320,fayetteville,35.0527,-78.8784,49.77000000000001,61,40,2.24,US,1667850744
321,galesong,-5.3166,119.3661,43.01000000000002,84,98,1.98,ID,1667850951
322,alekseyevka,50.6309,38.6903,21.169999999999987,82,45,1.98,RU,1667850951
323,gulbene,57.1777,26.7529,25.840000000000003,93,100,4.02,LV,1667850952
324,amazar,53.858,120.875,8.950000000000017,97,85,0.43,RU,1667850952
325,bulgan,48.8125,103.5347,19.789999999999992,50,7,1.94,MN,1667850952
326,verkhnetulomskiy,68.6073,31.7962,16.07000000000002,95,85,1.1,RU,1667850953
327,jalu,29.0331,21.5482,40.46000000000001,62,64,5.24,LY,1667850953
328,san jose,37.3394,-121.895,36.93999999999997,53,40,3.09,US,1667850780
329,matara,5.9485,80.5353,44.43999999999997,87,100,0.73,LK,1667850954
330,monte alegre,-2.0078,-54.0692,45.72,85,100,1.4,BR,1667850954
331,antalaha,-14.9003,50.2788,40.349999999999994,88,57,2.13,MG,1667850954
332,tongren,27.7172,109.1853,35.49999999999997,76,0,1.63,CN,1667850955
333,paveh,35.0434,46.3565,27.789999999999992,41,0,2.3,IR,1667850955
334,maniitsoq,65.4167,-52.9,11.679999999999978,56,0,3.3,GL,1667850955
335,senador jose porfirio,-2.5908,-51.9542,46.20000000000002,78,100,1.14,BR,1667850956
336,daman,20.4167,72.85,44.12999999999997,56,26,1.98,IN,1667850956
337,yuci,37.6803,112.7319,19.859999999999985,80,0,1.0,CN,1667850957
338,vrangel,42.7297,133.0839,23.960000000000008,83,2,3.95,RU,1667850957
339,paamiut,61.994,-49.6678,11.969999999999999,65,98,2.78,GL,1667850958
340,dyurtyuli,55.4911,54.8688,18.349999999999994,93,100,3.87,RU,1667850958
341,leninskoye,41.7589,69.3864,26.379999999999967,88,100,2.87,KZ,1667850958
342,labrea,-7.2586,-64.7981,57.71000000000001,26,95,0.8,BR,1667850959
343,vallentuna,59.5344,18.0776,29.02000000000001,93,75,4.47,SE,1667850959
344,toba,34.4833,136.85,31.99999999999997,66,0,5.5,JP,1667850959
345,ha tinh,18.3333,105.9,39.22999999999999,91,20,1.7,VN,1667850960
346,mount gambier,-37.8333,140.7667,33.07000000000002,86,0,2.88,AU,1667850950
347,palauig,15.435,119.9045,46.640000000000015,78,31,1.4,PH,1667850960
348,gumdag,39.2061,54.5906,27.049999999999983,46,0,5.57,TM,1667850961
349,bozova,37.3625,38.5267,31.51000000000002,77,100,7.19,TR,1667850961
350,tommot,58.9564,126.2925,-1.2700000000000102,99,93,0.94,RU,1667850961
351,broome,42.2506,-75.833,38.140000000000015,32,2,3.13,US,1667850962
352,goderich,43.7501,-81.7165,29.17999999999998,46,6,7.72,CA,1667850962
353,yeppoon,-23.1333,150.7333,36.87999999999997,77,34,5.36,AU,1667850963
354,oranjestad,12.524,-70.027,49.97,74,75,5.14,AW,1667850862
355,ampanihy,-24.7,44.75,42.71000000000001,74,0,3.08,MG,1667850963
356,bati,11.1833,40.0167,38.83000000000001,42,4,2.01,ET,1667850964
357,zhangjiakou,40.81,114.8794,21.47999999999999,30,0,0.46,CN,1667850964
358,ergani,38.2653,39.7621,29.789999999999992,86,100,1.45,TR,1667850964
359,juneau,58.3019,-134.4197,17.900000000000006,100,0,4.13,US,1667850947
360,vicuna,-30.0319,-70.7081,50.97999999999999,33,93,4.21,CL,1667850965
361,usakos,-22.0,15.6,40.52000000000001,50,0,3.86,NA,1667850965
362,mitu,1.1983,-70.1733,51.41,51,42,1.17,CO,1667850966
363,kitgum,3.2783,32.8867,43.099999999999994,60,100,0.75,UG,1667850966
364,praia,14.9215,-23.5087,47.29999999999998,61,0,5.14,CV,1667850967
365,madoc,44.5084,-77.4745,32.400000000000006,42,25,6.45,CA,1667850967
366,montague,42.5356,-72.5351,41.98999999999998,31,0,4.71,US,1667850967
367,kremenchuk,49.0973,33.4197,23.78,67,22,2.38,UA,1667850968
368,lagoa,39.05,-27.9833,37.16,66,100,8.18,PT,1667850968
369,noumea,-22.2763,166.4572,44.99999999999997,99,92,5.42,NC,1667850969
370,puerto cabezas,14.0351,-83.3888,49.97999999999999,74,75,3.09,NI,1667850969
371,sorland,67.667,12.6934,26.919999999999987,67,10,9.61,NO,1667850969
372,edson,53.5835,-116.4356,3.0800000000000125,85,100,4.63,CA,1667850970
373,loikaw,19.6742,97.2094,35.609999999999985,86,54,1.26,MM,1667850970
374,coihaique,-45.5752,-72.0662,37.34,88,100,2.06,CL,1667850971
375,kantang,7.4054,99.5156,43.79999999999998,94,100,1.41,TH,1667850971
376,glenwood springs,39.5505,-107.3248,37.99999999999997,70,0,5.14,US,1667850971
377,hammerfest,70.6634,23.6821,22.24999999999997,93,40,3.09,NO,1667850972
378,wanning,18.8003,110.3967,42.46000000000001,94,98,4.44,CN,1667850972
379,opuwo,-18.0607,13.84,40.22999999999999,39,0,4.13,NA,1667850973
380,kedougou,12.5579,-12.1743,49.059999999999974,37,22,0.96,SN,1667850973
381,shenjiamen,29.9576,122.298,37.109999999999985,64,0,2.1,CN,1667850973
382,clonakilty,51.6231,-8.8706,30.049999999999983,83,100,9.89,IE,1667850974
383,acapulco,16.8634,-99.8901,49.28,75,78,3.41,MX,1667850974
384,martinsburg,39.4562,-77.9639,45.369999999999976,35,5,5.57,US,1667850928
385,narsaq,60.9167,-46.05,14.340000000000003,89,100,1.86,GL,1667850975
386,san matias,-16.3667,-58.4,56.43999999999997,16,0,2.07,BO,1667850975
387,villazon,-22.0866,-65.5942,34.400000000000006,35,71,11.7,BO,1667850976
388,pychas,56.5033,52.4409,18.72999999999999,93,100,3.46,RU,1667850976
389,thenzawl,23.3167,92.75,33.78999999999999,88,2,1.21,IN,1667850976
390,mahibadhoo,3.7833,72.9667,47.42999999999998,73,97,3.95,MV,1667850977
391,mackay,-21.15,149.2,38.16,70,1,5.07,AU,1667850977
392,goundi,9.3627,17.366,45.859999999999985,35,62,0.68,TD,1667850978
393,saint-augustin,51.226,-58.6502,30.43999999999997,93,37,7.43,CA,1667850978
394,batticaloa,7.7102,81.6924,45.70000000000002,82,100,2.52,LK,1667850979
395,seybaplaya,19.65,-90.6667,48.21000000000001,58,5,4.99,MX,1667850979
396,richards bay,-28.783,32.0377,42.37999999999997,83,99,4.86,ZA,1667850979
397,abha,18.2164,42.5053,36.900000000000006,94,41,0.0,SA,1667850980
398,pacific grove,36.6177,-121.9166,35.369999999999976,67,75,2.57,US,1667850823
399,abu kamal,34.4506,40.9171,40.809999999999974,28,47,6.54,SY,1667850980
400,faro,37.0194,-7.9322,38.87999999999997,88,75,2.57,PT,1667850981
401,freetown,8.484,-13.2299,46.62999999999997,81,100,2.81,SL,1667850981
402,klyuchi,52.2667,79.1667,17.349999999999994,81,58,0.68,RU,1667850981
403,oum hadjer,13.2954,19.6966,50.41999999999999,18,98,3.95,TD,1667850982
404,yerbogachen,61.2767,108.0108,13.68999999999997,94,100,4.12,RU,1667850982
405,marawi,7.9986,124.2928,40.20000000000002,94,31,0.95,PH,1667850983
406,nhulunbuy,-12.2333,136.7667,45.34,88,40,0.0,AU,1667850983
407,kudeyevskiy,54.8758,56.7567,17.43999999999997,90,100,3.0,RU,1667850984
408,kourou,5.1552,-52.6478,47.03,78,98,3.34,GF,1667850984
409,coari,-4.085,-63.1414,46.76000000000002,80,100,2.87,BR,1667850985
410,smidovich,48.6,133.8167,18.26000000000002,71,11,2.83,RU,1667850985
411,souillac,-20.5167,57.5167,43.21000000000001,83,20,3.6,MU,1667850986
412,vedi,39.9142,44.7222,28.659999999999997,56,98,1.69,AM,1667850986
413,porto seguro,-16.4497,-39.0647,44.28999999999999,69,20,3.6,BR,1667850986
414,rio grande,-32.035,-52.0986,43.059999999999974,66,1,6.71,BR,1667850987
415,talnakh,69.4865,88.3972,4.559999999999974,97,100,3.12,RU,1667850987
416,san cristobal,7.7669,-72.225,47.099999999999994,63,84,2.03,VE,1667850829
417,roebourne,-20.7833,117.1333,39.77000000000001,61,1,6.85,AU,1667850988
418,malanje,-9.5402,16.341,39.03999999999999,87,80,1.26,AO,1667850988
419,santa catarina de tepehuanes,25.35,-105.7333,45.83000000000001,15,4,2.27,MX,1667850988
420,bayshore gardens,27.4253,-82.5904,50.12999999999997,57,57,7.02,US,1667850989
421,chapais,49.7834,-74.8492,21.879999999999967,73,99,6.92,CA,1667850989
422,ust-kuyga,70.0167,135.6,3.7299999999999898,97,100,2.93,RU,1667850989
423,santa maria,-29.6842,-53.8069,43.609999999999985,43,75,6.17,BR,1667850935
424,soloneshnoye,51.6544,84.3197,19.47999999999999,96,100,0.69,RU,1667850990
425,xai-xai,-25.0519,33.6442,43.43999999999997,89,19,3.4,MZ,1667850990
426,warrnambool,-38.3833,142.4833,34.27000000000001,87,5,3.31,AU,1667850811
427,carauari,-4.8828,-66.8958,55.23999999999998,35,88,1.39,BR,1667850991
428,zvishavane,-20.3267,30.0665,40.68999999999997,81,100,1.05,ZW,1667850991
429,praia da vitoria,38.7333,-27.0667,37.140000000000015,72,40,6.18,PT,1667850992
430,sibolga,1.7427,98.7792,44.28,85,100,1.33,ID,1667850992
431,powell river,49.8496,-124.5361,22.99999999999997,80,75,0.0,CA,1667850993
432,viking,53.1001,-111.7684,7.070000000000022,94,100,5.99,CA,1667850993
433,mogadishu,2.0371,45.3438,45.84,83,19,4.8,SO,1667850993
434,kudahuvadhoo,2.6708,72.8944,47.23999999999998,74,15,4.52,MV,1667850994
435,katsuura,35.1333,140.3,35.809999999999974,88,5,3.91,JP,1667850994
436,ulverstone,-41.15,146.1667,32.900000000000006,73,47,2.13,AU,1667850994
437,orotukan,62.2667,151.7,-1.3600000000000136,98,58,3.3,RU,1667850995
438,hemsedal,60.8629,8.5534,22.309999999999974,94,90,2.12,NO,1667850995
439,tsumeb,-19.2333,17.7167,43.640000000000015,30,0,2.38,NA,1667850996
440,seoul,37.5683,126.9778,30.68999999999997,84,75,2.57,KR,1667850974
441,cedar city,37.6775,-113.0619,32.99999999999997,39,61,9.09,US,1667850996
442,makakilo city,21.3469,-158.0858,48.02000000000001,65,100,8.81,US,1667850996
443,barguzin,53.6167,109.6167,19.609999999999985,87,89,2.5,RU,1667850997
444,pierre,44.3683,-100.351,28.359999999999985,42,87,2.68,US,1667850997
445,turukhansk,65.8167,87.9833,11.629999999999967,95,100,5.08,RU,1667850998
446,san-pedro,4.7485,-6.6363,45.84,85,33,2.58,CI,1667850998
447,bairiki,1.3292,172.9752,44.99999999999997,88,40,1.54,KI,1667850998
448,port hardy,50.6996,-127.4199,22.099999999999994,51,20,8.23,CA,1667850999
449,marsa matruh,31.3525,27.2453,41.16,61,0,8.19,EG,1667850999
450,flin flon,54.7682,-101.865,6.909999999999997,72,75,2.57,CA,1667850999
451,ewo,-0.8725,14.8206,43.27000000000001,78,72,0.8,CG,1667851000
452,cruzeiro do sul,-29.5128,-51.9853,41.96000000000001,62,61,3.44,BR,1667851000
453,baruun-urt,46.6806,113.2792,18.03,39,0,5.68,MN,1667851001
454,ilo,-17.6394,-71.3375,41.47999999999999,68,0,4.63,PE,1667851001
455,kavaratti,10.5669,72.642,47.52000000000001,71,19,1.38,IN,1667851001
456,jinchang,38.4953,102.1739,24.119999999999976,41,89,1.92,CN,1667851002
457,seymchan,62.8833,152.4333,6.559999999999974,97,100,0.6,RU,1667851002
458,bahia honda,22.9036,-83.1592,47.87999999999997,64,30,6.76,CU,1667851002
459,amaigbo,5.7892,7.8383,46.42999999999998,66,97,0.3,NG,1667851003
460,sobolevo,54.4299,31.8996,25.26000000000002,95,100,4.96,RU,1667851003
461,jasidih,24.5167,86.65,40.68999999999997,59,9,1.55,IN,1667851003
462,boma,7.0805,-2.1697,45.07000000000002,61,100,1.03,GH,1667851004
463,garowe,8.4054,48.4845,43.95000000000002,71,0,5.41,SO,1667851004
464,tabas,33.5959,56.9244,34.49999999999997,37,0,4.0,IR,1667851005
465,pisco,-13.7,-76.2167,40.01000000000002,72,0,5.14,PE,1667851005
466,freeport,40.6576,-73.5832,45.54999999999998,37,0,1.34,US,1667850743
467,saint-georges,12.0564,-61.7485,49.82000000000002,79,20,6.17,GD,1667850889
468,aykhal,66.0,111.5,-0.05000000000001137,100,98,1.02,RU,1667851006
469,pasir gudang,1.4584,103.8805,44.54999999999998,97,75,1.54,MY,1667851006
470,hanover,52.3705,9.7332,34.09,81,100,3.6,DE,1667850945
471,nuuk,64.1835,-51.7216,11.599999999999994,78,0,4.92,GL,1667851007
472,emporia,38.4039,-96.1817,35.84,35,100,7.53,US,1667851007
473,kamenka,51.3223,42.7678,19.82000000000002,87,100,2.7,RU,1667851007
474,baculin,7.4525,126.5842,45.47,85,57,2.26,PH,1667851008
475,mujiayingzi,42.1167,118.7833,20.900000000000006,39,74,2.94,CN,1667851008
476,anlu,31.1661,112.5831,35.74999999999997,63,99,1.63,CN,1667851008
477,kiunga,-6.1219,141.2906,42.78999999999999,100,100,0.53,PG,1667851009
478,komsomolskiy,40.4272,71.7189,31.400000000000006,71,100,1.03,UZ,1667851009
479,eyl,7.9803,49.8164,45.72999999999999,78,14,4.53,SO,1667851009
480,novyy urgal,51.0736,132.5642,10.619999999999976,97,73,0.28,RU,1667851010
481,tezu,27.9167,96.1667,37.42999999999998,60,1,1.65,IN,1667851010
482,sarangani,5.4033,125.4636,47.869999999999976,75,100,1.72,PH,1667851011
483,basco,20.4487,121.9702,45.79999999999998,83,17,9.25,PH,1667851011
484,padang,-0.9492,100.3543,44.87999999999997,88,99,1.33,ID,1667851011
485,manta,-0.95,-80.7333,45.87999999999997,73,20,4.63,EC,1667851012
486,doka,13.5167,35.7667,47.74999999999997,33,1,3.34,SD,1667851012
487,araouane,18.9048,-3.5265,45.59,12,0,3.33,ML,1667851013
488,suihua,46.6406,126.9969,17.92999999999998,64,11,3.24,CN,1667851013
489,darhan,49.4867,105.9228,18.629999999999967,57,62,3.25,MN,1667851013
490,anloga,5.7947,0.8973,47.76000000000002,77,93,4.21,GH,1667851014
491,emerald,-23.5333,148.1667,35.74999999999997,82,5,4.53,AU,1667850847
492,raga,8.4596,25.678,44.890000000000015,52,79,0.44,SS,1667851014
493,saurimo,-9.6608,20.3916,38.52000000000001,99,100,1.65,AO,1667851014
494,florence,43.7667,11.25,35.04999999999998,89,20,0.51,IT,1667851015
495,jamkhandi,16.5167,75.3,41.51000000000002,50,5,3.9,IN,1667851015
496,tres arroyos,-38.3739,-60.2798,49.140000000000015,18,58,7.28,AR,1667851016
497,pochutla,15.7432,-96.4661,52.119999999999976,64,99,2.82,MX,1667851016
498,kathu,7.9178,98.3332,44.900000000000006,84,96,3.57,TH,1667851016
499,inuvik,68.3499,-133.7218,4.559999999999974,71,20,3.6,CA,1667851017
500,laminusa,5.5549,120.9136,47.91999999999999,75,100,1.5,PH,1667851017
501,mbini,1.574,9.6134,46.28,84,100,2.48,GQ,1667851017
502,atambua,-9.1061,124.8925,44.12999999999997,85,100,1.03,ID,1667851018
503,ferzikovo,54.5191,36.7567,21.799999999999983,95,100,3.81,RU,1667851018
504,itarema,-2.9248,-39.9167,47.03999999999999,73,95,7.98,BR,1667851019
505,ketchikan,55.3422,-131.6461,16.48999999999998,35,0,6.16,US,1667851019
506,santa vitoria do palmar,-33.5189,-53.3681,38.559999999999974,61,1,5.63,BR,1667851019
507,marabba,12.35,32.1833,50.77000000000001,20,13,4.53,SD,1667851020
508,sampit,-2.5333,112.95,43.359999999999985,98,100,1.77,ID,1667851020
509,yumen,40.2833,97.2,23.359999999999985,37,49,3.6,CN,1667851020
510,mont-de-marsan,44.0,-0.6667,34.78,94,98,0.0,FR,1667851021
511,cueramaro,20.6167,-101.7167,46.22999999999999,16,0,2.9,MX,1667851021
512,zelenoborskiy,66.845,32.3622,18.369999999999976,88,15,2.09,RU,1667851021
513,alice town,25.7167,-79.3,46.26000000000002,73,0,10.55,BS,1667851022
514,los lunas,34.8062,-106.7334,41.03999999999999,25,49,0.45,US,1667851022
515,victoria,22.2855,114.1577,41.809999999999974,93,100,4.02,HK,1667850769
516,kanker,20.2719,81.4931,37.03999999999999,72,8,1.48,IN,1667851023
517,babu,24.4167,111.5167,39.059999999999974,84,46,0.79,CN,1667851023
518,turayf,31.6725,38.6637,37.140000000000015,59,0,5.14,SA,1667850979
519,rognan,67.0953,15.3878,20.48999999999998,83,6,0.92,NO,1667851024
520,la ronge,55.1001,-105.2842,7.140000000000015,56,40,2.06,CA,1667851024
521,searcy,35.2506,-91.7363,37.84,81,100,4.92,US,1667851024
522,qostanay,53.1667,63.5833,18.159999999999997,93,100,2.0,KZ,1667851025
523,kedrovyy,56.1667,91.8167,17.22999999999999,96,99,1.93,RU,1667851025
524,aklavik,68.2191,-135.0107,0.0,84,20,2.57,CA,1667851026
525,vigrestad,58.5667,5.7,29.97999999999999,90,100,4.44,NO,1667851026
526,laguna,38.421,-121.4238,35.72,55,75,1.34,US,1667851026
527,kahului,20.8947,-156.47,48.24999999999997,74,100,5.36,US,1667851027
528,high rock,26.6208,-78.2833,47.01000000000002,73,0,10.92,BS,1667851027
529,zhezkazgan,47.8043,67.7144,19.299999999999983,73,53,3.56,KZ,1667851028
530,verkhnyaya inta,65.9811,60.3094,16.359999999999985,94,100,6.1,RU,1667851028
531,swan hill,-35.3378,143.5544,35.08000000000001,84,0,2.28,AU,1667851028
532,rivera,-30.9053,-55.5508,41.74999999999997,44,1,6.46,UY,1667851029
533,wangqing,43.3218,129.7634,17.78,85,1,0.13,CN,1667851029
534,kitale,1.0157,35.0062,36.349999999999994,75,100,0.5,KE,1667851029
535,yako,12.9667,-2.2667,46.54999999999998,15,31,3.97,BF,1667851030
536,volga,57.9516,38.3879,20.67999999999998,95,100,3.88,RU,1667851030
537,biltine,14.5333,20.9167,48.49999999999997,18,18,3.51,TD,1667851031
538,krasnoselkup,65.7,82.4667,12.879999999999967,96,100,4.76,RU,1667851031
539,korla,41.7597,86.1469,27.97999999999999,39,100,0.75,CN,1667851031
540,bay roberts,47.5999,-53.2648,35.84,95,97,4.47,CA,1667851032
541,hami,42.8,93.45,26.799999999999983,32,100,0.31,CN,1667851032
542,nizhniy kuranakh,58.8353,125.4869,4.340000000000003,98,100,0.87,RU,1667851033
543,shimanovsk,52.0,127.7,11.289999999999992,96,54,0.59,RU,1667851033
544,shuyskoye,59.3736,41.0305,21.210000000000008,93,100,4.15,RU,1667851033
545,dunedin,-45.8742,170.5036,33.28,73,60,1.18,NZ,1667850950
546,lasa,46.6166,10.7002,24.090000000000003,68,96,0.82,IT,1667851034
547,kununurra,-15.7667,128.7333,45.98999999999998,78,5,1.54,AU,1667851034
548,canals,38.9625,-0.5844,36.72999999999999,85,4,1.13,ES,1667851035
549,muravlenko,63.7898,74.523,10.890000000000015,95,100,4.59,RU,1667851035
550,tynda,55.1667,124.7167,-0.6299999999999955,100,48,0.97,RU,1667851036
551,tessalit,20.1986,1.0114,45.59,12,6,2.96,ML,1667851036
552,villamontes,-21.25,-63.5,55.62999999999997,16,13,4.09,BO,1667851036
553,newport,51.5877,-2.9984,34.68999999999997,86,100,13.44,GB,1667851037
554,meulaboh,4.1363,96.1285,44.79999999999998,88,100,1.45,ID,1667851037
555,timizart,36.8,4.2667,37.93999999999997,38,0,2.7,DZ,1667851038
556,itaituba,-4.2761,-55.9836,45.09,94,75,2.06,BR,1667851038
557,santa cruz del sur,20.7147,-77.9956,50.08000000000001,54,36,6.33,CU,1667851039
558,trofors,65.5333,13.4063,20.92999999999998,83,9,1.51,NO,1667851039
559,moussoro,13.6408,16.4901,49.74999999999997,16,5,4.92,TD,1667851040
560,dengzhou,37.8086,120.7508,31.080000000000013,57,0,1.87,CN,1667851040
561,seryshevo,51.0933,128.3786,13.409999999999997,83,100,1.55,RU,1667851040
